time,x,y,z,w0,w1,w2,w3,vx,vy,vz,roll,pitch,yaw
0,3.73452737214858E-06,1.83465558702814E-05,0,0,0,0,1,0,0,0,0,0,0
0,4.63738641153736E-06,2.0984842864688E-05,0,0,0,0,1,0,0,0,0,0,0
0,5.54035549304738E-06,2.36233958984788E-05,0,0,0,0,1,0,0,0,0,0,0
0,6.44343275258124E-06,2.62622101525777E-05,0,0,0,0,1,0,0,0,0,0,0
0,7.34661680209473E-06,2.89012820501844E-05,0,0,0,0,1,0,0,0,0,0,0
0,8.24990660726419E-06,3.15406089380028E-05,0,0,0,0,1,0,0,0,0,0,0
0,9.15330139651758E-06,3.41801888491054E-05,0,0,0,0,1,0,0,0,0,0,0
0,1.00568012218237E-05,3.68200224320385E-05,0,0,0,0,1,0,0,0,0,0,0
0,1.0960405229298E-05,3.94601075663535E-05,0,0,0,0,1,0,0,0,0,0,0
0,1.18641129781246E-05,4.21004430956121E-05,0,0,0,0,1,0,0,0,0,0,0
0,1.27679242251828E-05,4.4741028433735E-05,0,0,0,0,1,0,0,0,0,0,0
0,1.36718364218474E-05,4.7381858051197E-05,0,0,0,0,1,0,0,0,0,0,0
0,1.45758347999039E-05,5.00229112362926E-05,0,0,0,0,1,0,0,0,0,0,0
0,1.54799235699077E-05,5.26642080070915E-05,0,0,0,0,1,0,0,0,0,0,0
0,1.63841028309793E-05,5.53057487417936E-05,0,0,0,0,1,0,0,0,0,0,0
0,1.72883725217312E-05,5.79475333187656E-05,0,0,0,0,1,0,0,0,0,0,0
0,1.81927325933638E-05,6.05895616519606E-05,0,0,0,0,1,0,0,0,0,0,0
0,1.90971830065058E-05,6.32318336821094E-05,0,0,0,0,1,0,0,0,0,0,0
0,2.00017237287761E-05,6.58743493698021E-05,0,0,0,0,1,0,0,0,0,0,0
0,2.09063547329871E-05,6.85171086903454E-05,0,0,0,0,1,0,0,0,0,0,0
0,2.18110759959327E-05,7.11601116303608E-05,0,0,0,0,1,0,0,0,0,0,0
0,2.27158874971257E-05,7.38033581842433E-05,0,0,0,0,1,0,0,0,0,0,0
0,2.36207892184009E-05,7.64468483529729E-05,0,0,0,0,1,0,0,0,0,0,0
0,2.45257811430383E-05,7.90905821416437E-05,0,0,0,0,1,0,0,0,0,0,0
0,2.54308632171097E-05,8.17345595055053E-05,0,0,0,0,1,0,0,0,0,0,0
0,2.6336025963798E-05,8.43787636660882E-05,0,0,0,0,1,0,0,0,0,0,0
0,2.72412701461519E-05,8.70232062584535E-05,0,0,0,0,1,0,0,0,0,0,0
0,2.81465964658417E-05,8.96678894941068E-05,0,0,0,0,1,0,0,0,0,0,0
0,2.90520049104851E-05,9.23128133887018E-05,0,0,0,0,1,0,0,0,0,0,0
0,2.99574954671904E-05,9.49579779562985E-05,0,0,0,0,1,0,0,0,0,0,0
0,3.08630681233575E-05,9.7603383211901E-05,0,0,0,0,1,0,0,0,0,0,0
0,3.17687228665025E-05,0.000100249029171,0,0,0,0,1,0,0,0,0,0,0
0,3.26744596843695E-05,0.000102894915849,0,0,0,0,1,0,0,0,0,0,0
0,3.35802785646801E-05,0.000105541043263,0,0,0,0,1,0,0,0,0,0,0
0,3.44861794952566E-05,0.000108187411429,0,0,0,0,1,0,0,0,0,0,0
0,3.53921628269858E-05,0.000110834021331,0,0,0,0,1,0,0,0,0,0,0
0,3.62982290935052E-05,0.000113480873835,0,0,0,0,1,0,0,0,0,0,0
0,3.72043779271296E-05,0.000116127967733,0,0,0,0,1,0,0,0,0,0,0
0,3.8110609313617E-05,0.000118775303037,0,0,0,0,1,0,0,0,0,0,0
0,3.90169232410923E-05,0.000121422879762,0,0,0,0,1,0,0,0,0,0,0
0,3.99233196976502E-05,0.000124070697927,0,0,0,0,1,0,0,0,0,0,0
0,4.08297986714927E-05,0.00012671875755,0,0,0,0,1,0,0,0,0,0,0
0,4.17363601506885E-05,0.000129367058646,0,0,0,0,1,0,0,0,0,0,0
0,4.26430041234379E-05,0.000132015601234,0,0,0,0,1,0,0,0,0,0,0
0,4.3549730577892E-05,0.000134664385332,0,0,0,0,1,0,0,0,0,0,0
0,4.44565395021756E-05,0.000137313410956,0,0,0,0,1,0,0,0,0,0,0
0,4.53634308844502E-05,0.000139962678124,0,0,0,0,1,0,0,0,0,0,0
0,4.62704047128216E-05,0.000142612186854,0,0,0,0,1,0,0,0,0,0,0
0,4.71774609754026E-05,0.000145261937163,0,0,0,0,1,0,0,0,0,0,0
0,4.80845996604258E-05,0.000147911929069,0,0,0,0,1,0,0,0,0,0,0
0,4.89918207559319E-05,0.000150562162588,0,0,0,0,1,0,0,0,0,0,0
0,4.98991242500451E-05,0.000153212637739,0,0,0,0,1,0,0,0,0,0,0
0,5.08065101308781E-05,0.000155863354538,0,0,0,0,1,0,0,0,0,0,0
0,5.1713978386529E-05,0.000158514313003,0,0,0,0,1,0,0,0,0,0,0
0,5.26215290050786E-05,0.000161165513152,0,0,0,0,1,0,0,0,0,0,0
0,5.3529161974617E-05,0.000163816955002,0,0,0,0,1,0,0,0,0,0,0
0,5.44368772832406E-05,0.00016646863857,0,0,0,0,1,0,0,0,0,0,0
0,5.53446749190214E-05,0.000169120563873,0,0,0,0,1,0,0,0,0,0,0
0,5.62525548700853E-05,0.00017177273093,0,0,0,0,1,0,0,0,0,0,0
0,5.71605171244653E-05,0.000174425139757,0,0,0,0,1,0,0,0,0,0,0
0,5.80685616702482E-05,0.000177077790372,0,0,0,0,1,0,0,0,0,0,0
0,5.89766886471589E-05,0.000179730683259,0,0,0,0,1,0,0,0,0,0,0
0,5.98848990321184E-05,0.000182383821621,0,0,0,0,1,0,0,0,0,0,0
0,6.07931919660376E-05,0.000185037202969,0,0,0,0,1,0,0,0,0,0,0
0,6.17015674141512E-05,0.000187690827251,0,0,0,0,1,0,0,0,0,0,0
0,6.2610025457331E-05,0.000190344694765,0,0,0,0,1,0,0,0,0,0,0
0,6.35185667405254E-05,0.000192998807452,0,0,0,0,1,0,0,0,0,0,0
0,6.44271903582237E-05,0.000195653162584,0,0,0,0,1,0,0,0,0,0,0
0,6.53358956728767E-05,0.000198307758407,0,0,0,0,1,0,0,0,0,0,0
0,6.62446832973501E-05,0.000200962596879,0,0,0,0,1,0,0,0,0,0,0
0,6.71535532243174E-05,0.000203617678031,0,0,0,0,1,0,0,0,0,0,0
0,6.80625054416814E-05,0.000206273001881,0,0,0,0,1,0,0,0,0,0,0
0,6.89715399371906E-05,0.000208928568445,0,0,0,0,1,0,0,0,0,0,0
0,6.9880656698427E-05,0.000211584377739,0,0,0,0,1,0,0,0,0,0,0
0,7.07898557133204E-05,0.000214240429782,0,0,0,0,1,0,0,0,0,0,0
0,7.16991372799085E-05,0.000216896725551,0,0,0,0,1,0,0,0,0,0,0
0,7.26085017552459E-05,0.000219553266313,0,0,0,0,1,0,0,0,0,0,0
0,7.35179486521364E-05,0.000222210050657,0,0,0,0,1,0,0,0,0,0,0
0,7.44274779553213E-05,0.000224867078589,0,0,0,0,1,0,0,0,0,0,0
0,7.53370896529057E-05,0.000227524350127,0,0,0,0,1,0,0,0,0,0,0
0,7.62467837328879E-05,0.000230181865289,0,0,0,0,1,0,0,0,0,0,0
0,7.71565564724724E-05,0.000232839618942,0,0,0,0,1,0,0,0,0,0,0
0,7.80664028867707E-05,0.000235497611074,0,0,0,0,1,0,0,0,0,0,0
0,7.89763240578133E-05,0.000238155845757,0,0,0,0,1,0,0,0,0,0,0
0,7.98863199779499E-05,0.00024081432302,0,0,0,0,1,0,0,0,0,0,0
0,8.07963906352396E-05,0.000243473042879,0,0,0,0,1,0,0,0,0,0,0
0,8.17065360177562E-05,0.000246132005349,0,0,0,0,1,0,0,0,0,0,0
0,8.26167561136671E-05,0.000248791210446,0,0,0,0,1,0,0,0,0,0,0
0,8.35270509111641E-05,0.000251450658187,0,0,0,0,1,0,0,0,0,0,0
0,8.44374203984605E-05,0.000254110348588,0,0,0,0,1,0,0,0,0,0,0
0,8.53478645731513E-05,0.000256770281693,0,0,0,0,1,0,0,0,0,0,0
0,8.62583834275194E-05,0.000259430457528,0,0,0,0,1,0,0,0,0,0,0
0,8.71689769422548E-05,0.000262090876087,0,0,0,0,1,0,0,0,0,0,0
0,8.80796451056083E-05,0.000264751537386,0,0,0,0,1,0,0,0,0,0,0
0,0.003185037904277,0.000272872241023,0,0,0,0,1,0,0,0,0,0,0
0,0.01495843296183,0.000294229638083,0,0,0,0,1,0,0,0,0,0,0
0,0.033981216142209,0.000323966094293,0,0,0,0,1,0,0,0,0,0,0
0,0.055309362628396,0.000389197187342,0,0,0,0,1,0,0,0,0,0,0
0,0.078520441046196,0.000763528701284,0,0,0,0,1,0,0,0,0,0,0
0,0.10224936630376,0.001757119485543,0,0,0,0,1,0,0,0,0,0,0
0,0.127827799928692,0.003500280136358,0,0,0,0,1,0,0,0,0,0,0
0,0.153433324425554,0.006033010902874,0,0,0,0,1,0,0,0,0,0,0
0,0.179097510118617,0.009389917489207,0,0,0,0,1,0,0,0,0,0,0
0,0.203390068256378,0.013437967098078,0,0,0,0,1,0,0,0,0,0,0
0,0.228035915692824,0.018394466127294,0,0,0,0,1,0,0,0,0,0,0
0,0.253175678174076,0.024134979087611,0,0,0,0,1,0,0,0,0,0,0
0,0.278214280447968,0.030524175271143,0,0,0,0,1,0,0,0,0,0,0
0,0.302887415583388,0.037604454232829,0,0,0,0,1,0,0,0,0,0,0
0,0.327376873995854,0.045354333972948,0,0,0,0,1,0,0,0,0,0,0
0,0.351856559075244,0.053644817524022,0,0,0,0,1,0,0,0,0,0,0
0,0.376345966948921,0.062354767019192,0,0,0,0,1,0,0,0,0,0,0
0,0.400653132550545,0.071353470402523,0,0,0,0,1,0,0,0,0,0,0
0,0.424669711344231,0.080665327385359,0,0,0,0,1,0,0,0,0,0,0
0,0.448650238331314,0.090394796765591,0,0,0,0,1,0,0,0,0,0,0
0,0.472634677417386,0.10045800562664,0,0,0,0,1,0,0,0,0,0,0
0,0.496438360534832,0.110720676921945,0,0,0,0,1,0,0,0,0,0,0
0,0.520011638834131,0.121213669333413,0,0,0,0,1,0,0,0,0,0,0
0,0.543528752533287,0.132056274487196,0,0,0,0,1,0,0,0,0,0,0
0,0.567053869488779,0.143150519747462,0,0,0,0,1,0,0,0,0,0,0
0,0.590498215094816,0.154307999041041,0,0,0,0,1,0,0,0,0,0,0
0,0.613813113421841,0.165487905530858,0,0,0,0,1,0,0,0,0,0,0
0,0.635544771520872,0.175963293902988,0,0,0,0,1,0,0,0,0,0,0
0,0.657968595752586,0.186902063722819,0,0,0,0,1,0,0,0,0,0,0
0,0.681225188468382,0.198241446004278,0,0,0,0,1,0,0,0,0,0,0
0,0.704499292407352,0.209633478757638,0,0,0,0,1,0,0,0,0,0,0
0,0.727817823541205,0.221073543440192,0,0,0,0,1,0,0,0,0,0,0
0,0.751204524353449,0.232527044434355,0,0,0,0,1,0,0,0,0,0,0
0,0.774516210984051,0.243901355400096,0,0,0,0,1,0,0,0,0,0,0
0,0.797669613330739,0.255210698364589,0,0,0,0,1,0,0,0,0,0,0
0,0.821055500380978,0.266559156106231,0,0,0,0,1,0,0,0,0,0,0
0,0.844533381131824,0.277876383656414,0,0,0,0,1,0,0,0,0,0,0
0,0.867973710053531,0.289064226799523,0,0,0,0,1,0,0,0,0,0,0
0,0.891350861158528,0.300170589491289,0,0,0,0,1,0,0,0,0,0,0
0,0.914833783576577,0.311282798418341,0,0,0,0,1,0,0,0,0,0,0
0,0.938397617799438,0.322413065614123,0,0,0,0,1,0,0,0,0,0,0
0,0.961980849665919,0.333426160225615,0,0,0,0,1,0,0,0,0,0,0
0,0.985530704320241,0.344265680334848,0,0,0,0,1,0,0,0,0,0,0
0,1.00814803042656,0.354535159022622,0,0,0,0,1,0,0,0,0,0,0
0,1.0310508467153,0.364834776275833,0,0,0,0,1,0,0,0,0,0,0
0,1.05490659207422,0.375382064869948,0,0,0,0,1,0,0,0,0,0,0
0,1.0787442984089,0.385680473679015,0,0,0,0,1,0,0,0,0,0,0
0,1.10161169335597,0.395388076185441,0,0,0,0,1,0,0,0,0,0,0
0,1.12478444771233,0.405135986282682,0,0,0,0,1,0,0,0,0,0,0
0,1.14890959215324,0.415141451765039,0,0,0,0,1,0,0,0,0,0,0
0,1.17295522695253,0.424875894436369,0,0,0,0,1,0,0,0,0,0,0
0,1.1960378407841,0.434028096121213,0,0,0,0,1,0,0,0,0,0,0
0,1.21795864481086,0.442558677463678,0,0,0,0,1,0,0,0,0,0,0
0,1.24078098870981,0.451217231306479,0,0,0,0,1,0,0,0,0,0,0
0,1.26405100442473,0.459790318771861,0,0,0,0,1,0,0,0,0,0,0
0,1.28851611455097,0.468543407196425,0,0,0,0,1,0,0,0,0,0,0
0,1.31320014467595,0.477093883711098,0,0,0,0,1,0,0,0,0,0,0
0,1.3380404779607,0.485388427000852,0,0,0,0,1,0,0,0,0,0,0
0,1.3627734010856,0.4933142199916,0,0,0,0,1,0,0,0,0,0,0
0,1.38767456981762,0.50095344051483,0,0,0,0,1,0,0,0,0,0,0
0,1.41179016437331,0.508034121049415,0,0,0,0,1,0,0,0,0,0,0
0,1.43563340512151,0.514871210702208,0,0,0,0,1,0,0,0,0,0,0
0,1.46007647267585,0.521822081788002,0,0,0,0,1,0,0,0,0,0,0
0,1.48516797444399,0.528700785760679,0,0,0,0,1,0,0,0,0,0,0
0,1.51044728375267,0.53532413157224,0,0,0,0,1,0,0,0,0,0,0
0,1.53577927095971,0.541645796944147,0,0,0,0,1,0,0,0,0,0,0
0,1.56109796329066,0.547659244736355,0,0,0,0,1,0,0,0,0,0,0
0,1.58650645232926,0.553358379397041,0,0,0,0,1,0,0,0,0,0,0
0,1.61207879135133,0.558762680027749,0,0,0,0,1,0,0,0,0,0,0
0,1.63765330002979,0.563852301570469,0,0,0,0,1,0,0,0,0,0,0
0,1.66326656063164,0.568675854381139,0,0,0,0,1,0,0,0,0,0,0
0,1.68889159341012,0.573242641135882,0,0,0,0,1,0,0,0,0,0,0
0,1.71464367455846,0.577554197063948,0,0,0,0,1,0,0,0,0,0,0
0,1.74035342443524,0.581601431580529,0,0,0,0,1,0,0,0,0,0,0
0,1.76615274266038,0.585426268351345,0,0,0,0,1,0,0,0,0,0,0
0,1.79195327701692,0.589004279756134,0,0,0,0,1,0,0,0,0,0,0
0,1.81781771302332,0.592331319832634,0,0,0,0,1,0,0,0,0,0,0
0,1.84362197243491,0.595435245634075,0,0,0,0,1,0,0,0,0,0,0
0,1.86954390485613,0.598359125569962,0,0,0,0,1,0,0,0,0,0,0
0,1.89545819089502,0.601071480899371,0,0,0,0,1,0,0,0,0,0,0
0,1.92135944592955,0.603565272379005,0,0,0,0,1,0,0,0,0,0,0
0,1.94723972443495,0.605873000439678,0,0,0,0,1,0,0,0,0,0,0
0,1.97323250032389,0.60801835547685,0,0,0,0,1,0,0,0,0,0,0
0,1.99923775505688,0.610008530696705,0,0,0,0,1,0,0,0,0,0,0
0,2.02514622246382,0.611811163570612,0,0,0,0,1,0,0,0,0,0,0
0,2.05108151814105,0.613459095790406,0,0,0,0,1,0,0,0,0,0,0
0,2.07711932622262,0.614968020709823,0,0,0,0,1,0,0,0,0,0,0
0,2.10317877022912,0.616341572669567,0,0,0,0,1,0,0,0,0,0,0
0,2.12908633466905,0.617573466652258,0,0,0,0,1,0,0,0,0,0,0
0,2.15503927517542,0.618699743258062,0,0,0,0,1,0,0,0,0,0,0
0,2.18109408284868,0.619717832528067,0,0,0,0,1,0,0,0,0,0,0
0,2.20717794875029,0.620630201012891,0,0,0,0,1,0,0,0,0,0,0
0,2.23313566715712,0.621473629972001,0,0,0,0,1,0,0,0,0,0,0
0,2.25906100080398,0.622355015596379,0,0,0,0,1,0,0,0,0,0,0
0,2.2850833775974,0.623282104463687,0,0,0,0,1,0,0,0,0,0,0
0,2.31112312968621,0.624230289360137,0,0,0,0,1,0,0,0,0,0,0
0,2.3363330434927,0.625117975355654,0,0,0,0,1,0,0,0,0,0,0
0,2.36187832943042,0.625999053304588,0,0,0,0,1,0,0,0,0,0,0
0,2.38686919110812,0.626870974612841,0,0,0,0,1,0,0,0,0,0,0
0,2.41247820429985,0.62775383375709,0,0,0,0,1,0,0,0,0,0,0
0,2.43768384424439,0.628590103051579,0,0,0,0,1,0,0,0,0,0,0
0,2.46317272297017,0.629425800526061,0,0,0,0,1,0,0,0,0,0,0
0,2.48816534871589,0.630256105045442,0,0,0,0,1,0,0,0,0,0,0
0,2.51386892033311,0.631098741111514,0,0,0,0,1,0,0,0,0,0,0
0,2.53907323720313,0.631895433725868,0,0,0,0,1,0,0,0,0,0,0
0,2.56454796327776,0.632698243773618,0,0,0,0,1,0,0,0,0,0,0
0,2.58952391315446,0.633538862025697,0,0,0,0,1,0,0,0,0,0,0
0,2.61520952291411,0.634449175946351,0,0,0,0,1,0,0,0,0,0,0
0,2.64028839828068,0.635361091664665,0,0,0,0,1,0,0,0,0,0,0
0,2.66394022351148,0.636222379043844,0,0,0,0,1,0,0,0,0,0,0
0,2.68407104333857,0.63696129223797,0,0,0,0,1,0,0,0,0,0,0
0,2.69552650470247,0.637429841713395,0,0,0,0,1,0,0,0,0,0,0
0,2.69928648090312,0.63763215808679,0,0,0,0,1,0,0,0,0,0,0
0,2.69949656599877,0.6376472211627,0,0,0,0,1,0,0,0,0,0,0
0,2.69955247053583,0.637652848270647,0,0,0,0,1,0,0,0,0,0,0
0,2.6996066491946,0.637658436114495,0,0,0,0,1,0,0,0,0,0,0
0,2.69965969961023,0.637663994144569,0,0,0,0,1,0,0,0,0,0,0
0,2.69971206790763,0.637669534475493,0,0,0,0,1,0,0,0,0,0,0
0,2.69976358020689,0.637675063483395,0,0,0,0,1,0,0,0,0,0,0
0,2.69981519918295,0.637680646693978,0,0,0,0,1,0,0,0,0,0,0
0,2.70249750174884,0.637852971062901,0,0,0,0,1,0,0,0,0,0,0
0,2.71192845980516,0.638360953419482,0,0,0,0,1,0,0,0,0,0,0
0,2.72554214096944,0.638722437226362,0,0,0,0,1,0,0,0,0,0,0
0,2.74229143711818,0.638597029491407,0,0,0,0,1,0,0,0,0,0,0
0,2.76555773525044,0.638205621736697,0,0,0,0,1,0,0,0,0,0,0
0,2.791631583656,0.637724263123228,0,0,0,0,1,0,0,0,0,0,0
0,2.81760333716047,0.637198497656716,0,0,0,0,1,0,0,0,0,0,0
0,2.8435189532501,0.636657594522044,0,0,0,0,1,0,0,0,0,0,0
0,2.86947507994803,0.636211353586014,0,0,0,0,1,0,0,0,0,0,0
0,2.89551980304561,0.635872211635533,0,0,0,0,1,0,0,0,0,0,0
0,2.92148849008922,0.635646626956595,0,0,0,0,1,0,0,0,0,0,0
0,2.94739223305861,0.635498721668662,0,0,0,0,1,0,0,0,0,0,0
0,2.97334602326278,0.635461146090045,0,0,0,0,1,0,0,0,0,0,0
0,2.99938262745656,0.635553680022889,0,0,0,0,1,0,0,0,0,0,0
0,3.02534450121369,0.635752632793922,0,0,0,0,1,0,0,0,0,0,0
0,3.05126045917198,0.636025072832854,0,0,0,0,1,0,0,0,0,0,0
0,3.07722296796901,0.636391993364637,0,0,0,0,1,0,0,0,0,0,0
0,3.10326105436727,0.636852322433379,0,0,0,0,1,0,0,0,0,0,0
0,3.12925772682844,0.637378239842157,0,0,0,0,1,0,0,0,0,0,0
0,3.15514517085928,0.63794811649251,0,0,0,0,1,0,0,0,0,0,0
0,3.18111475244642,0.638568734440442,0,0,0,0,1,0,0,0,0,0,0
0,3.20715934599041,0.639215708472641,0,0,0,0,1,0,0,0,0,0,0
0,3.23315615369924,0.63985883030424,0,0,0,0,1,0,0,0,0,0,0
0,3.25904918736301,0.640501628217257,0,0,0,0,1,0,0,0,0,0,0
0,3.28502790188553,0.641153177889735,0,0,0,0,1,0,0,0,0,0,0
0,3.31107800622593,0.641811467815352,0,0,0,0,1,0,0,0,0,0,0
0,3.33707719712657,0.642451522245947,0,0,0,0,1,0,0,0,0,0,0
0,3.36297624475496,0.643083055865745,0,0,0,0,1,0,0,0,0,0,0
0,3.38895720712662,0.643721541639789,0,0,0,0,1,0,0,0,0,0,0
0,3.41500861999255,0.644364111919679,0,0,0,0,1,0,0,0,0,0,0
0,3.44100812138655,0.644986671325477,0,0,0,0,1,0,0,0,0,0,0
0,3.46690787152266,0.64559885881238,0,0,0,0,1,0,0,0,0,0,0
0,3.4928913712318,0.646216179058762,0,0,0,0,1,0,0,0,0,0,0
0,3.5189444353268,0.646835223597314,0,0,0,0,1,0,0,0,0,0,0
0,3.54494438751236,0.64743253757383,0,0,0,0,1,0,0,0,0,0,0
0,3.57083401640738,0.648008803465892,0,0,0,0,1,0,0,0,0,0,0
0,3.59682330081118,0.648568682149115,0,0,0,0,1,0,0,0,0,0,0
0,3.62287785561543,0.64912956640001,0,0,0,0,1,0,0,0,0,0,0
0,3.64887894717653,0.649674396477917,0,0,0,0,1,0,0,0,0,0,0
0,3.67477356224779,0.650199636769448,0,0,0,0,1,0,0,0,0,0,0
0,3.70076487000096,0.650712285417599,0,0,0,0,1,0,0,0,0,0,0
0,3.72683016978753,0.651214155376036,0,0,0,0,1,0,0,0,0,0,0
0,3.75283181355874,0.651675753005577,0,0,0,0,1,0,0,0,0,0,0
0,3.77872977250256,0.652118898570755,0,0,0,0,1,0,0,0,0,0,0
0,3.80472366897788,0.652553483070068,0,0,0,0,1,0,0,0,0,0,0
0,3.83079029060199,0.652978244048314,0,0,0,0,1,0,0,0,0,0,0
0,3.85679200294419,0.653368274793623,0,0,0,0,1,0,0,0,0,0,0
0,3.88268837107906,0.653738654186912,0,0,0,0,1,0,0,0,0,0,0
0,3.90868514918921,0.654099088598003,0,0,0,0,1,0,0,0,0,0,0
0,3.93475519600444,0.654447884770504,0,0,0,0,1,0,0,0,0,0,0
0,3.96075631960762,0.654761353372167,0,0,0,0,1,0,0,0,0,0,0
0,3.98665359901699,0.655053779403654,0,0,0,0,1,0,0,0,0,0,0
0,4.01265291300953,0.655335141478994,0,0,0,0,1,0,0,0,0,0,0
0,4.03872620175664,0.65560348238877,0,0,0,0,1,0,0,0,0,0,0
0,4.06472582945092,0.655836830522624,0,0,0,0,1,0,0,0,0,0,0
0,4.09062501238796,0.656052289154424,0,0,0,0,1,0,0,0,0,0,0
0,4.11662728459197,0.656262962391429,0,0,0,0,1,0,0,0,0,0,0
0,4.14269992146912,0.656459118617867,0,0,0,0,1,0,0,0,0,0,0
0,4.16869042821246,0.656638867797362,0,0,0,0,1,0,0,0,0,0,0
0,4.19457892486012,0.656817292904953,0,0,0,0,1,0,0,0,0,0,0
0,4.22057893637898,0.656997688373684,0,0,0,0,1,0,0,0,0,0,0
0,4.24665210212722,0.657176540819668,0,0,0,0,1,0,0,0,0,0,0
0,4.27264417446384,0.657333269137744,0,0,0,0,1,0,0,0,0,0,0
0,4.29854037421853,0.657477641234333,0,0,0,0,1,0,0,0,0,0,0
0,4.32454409091994,0.657618464525187,0,0,0,0,1,0,0,0,0,0,0
0,4.3506202762722,0.657749876834576,0,0,0,0,1,0,0,0,0,0,0
0,4.37661206762936,0.657854261493471,0,0,0,0,1,0,0,0,0,0,0
0,4.40251465189775,0.657938811101495,0,0,0,0,1,0,0,0,0,0,0
0,4.42852217648153,0.658013487072434,0,0,0,0,1,0,0,0,0,0,0
0,4.45459445636166,0.658078881546486,0,0,0,0,1,0,0,0,0,0,0
0,4.48057728862923,0.658142696632231,0,0,0,0,1,0,0,0,0,0,0
0,4.50648658365074,0.658205482603009,0,0,0,0,1,0,0,0,0,0,0
0,4.53249076988768,0.658275851153083,0,0,0,0,1,0,0,0,0,0,0
0,4.55856527569051,0.658347052363176,0,0,0,0,1,0,0,0,0,0,0
0,4.5845486309171,0.658403388223397,0,0,0,0,1,0,0,0,0,0,0
0,4.6104554655359,0.65845197474264,0,0,0,0,1,0,0,0,0,0,0
0,4.63646426475053,0.658500117299872,0,0,0,0,1,0,0,0,0,0,0
0,4.6625407949044,0.658538562156876,0,0,0,0,1,0,0,0,0,0,0
0,4.68851767692801,0.658567119476465,0,0,0,0,1,0,0,0,0,0,0
0,4.71443357789071,0.658591371800507,0,0,0,0,1,0,0,0,0,0,0
0,4.74044484607239,0.65861271483039,0,0,0,0,1,0,0,0,0,0,0
0,4.76652353747121,0.658618516727382,0,0,0,0,1,0,0,0,0,0,0
0,4.79249908148709,0.658612506817617,0,0,0,0,1,0,0,0,0,0,0
0,4.81842129309622,0.658602334288201,0,0,0,0,1,0,0,0,0,0,0
0,4.84443377383676,0.658589768326963,0,0,0,0,1,0,0,0,0,0,0
0,4.87051248274025,0.658564194044996,0,0,0,0,1,0,0,0,0,0,0
0,4.89648828334495,0.658528111770412,0,0,0,0,1,0,0,0,0,0,0
0,4.92241168813532,0.658487856231764,0,0,0,0,1,0,0,0,0,0,0
0,4.94842164661144,0.658452687110287,0,0,0,0,1,0,0,0,0,0,0
0,4.9744991431797,0.658414577238157,0,0,0,0,1,0,0,0,0,0,0
0,5.00047046066891,0.658362366362306,0,0,0,0,1,0,0,0,0,0,0
0,5.02639723991507,0.658297174019792,0,0,0,0,1,0,0,0,0,0,0
0,5.05240857188289,0.658236691396106,0,0,0,0,1,0,0,0,0,0,0
0,5.07847258928023,0.658176282418245,0,0,0,0,1,0,0,0,0,0,0
0,5.10444052253062,0.658114764041476,0,0,0,0,1,0,0,0,0,0,0
0,5.13036579807374,0.658048741609751,0,0,0,0,1,0,0,0,0,0,0
0,5.15637788441488,0.65798710591453,0,0,0,0,1,0,0,0,0,0,0
0,5.18244201703676,0.657925943803809,0,0,0,0,1,0,0,0,0,0,0
0,5.20840800487428,0.657862961464512,0,0,0,0,1,0,0,0,0,0,0
0,5.23433409136818,0.657795674912953,0,0,0,0,1,0,0,0,0,0,0
0,5.26034716982625,0.657732679709965,0,0,0,0,1,0,0,0,0,0,0
0,5.28641107513731,0.657670082428941,0,0,0,0,1,0,0,0,0,0,0
0,5.31237514034966,0.657605356841152,0,0,0,0,1,0,0,0,0,0,0
0,5.33827256511489,0.657579682453046,0,0,0,0,1,0,0,0,0,0,0
0,5.36425783384109,0.65768264443542,0,0,0,0,1,0,0,0,0,0,0
0,5.39027920590355,0.657904057961412,0,0,0,0,1,0,0,0,0,0,0
0,5.41622200771189,0.658229832181486,0,0,0,0,1,0,0,0,0,0,0
0,5.44212732049557,0.65863785243683,0,0,0,0,1,0,0,0,0,0,0
0,5.46811390434236,0.659142031687222,0,0,0,0,1,0,0,0,0,0,0
0,5.49414758837125,0.659745324635389,0,0,0,0,1,0,0,0,0,0,0
0,5.5200905836096,0.660420458608774,0,0,0,0,1,0,0,0,0,0,0
0,5.54595897864477,0.661176365302076,0,0,0,0,1,0,0,0,0,0,0
0,5.57194084549029,0.66201162642986,0,0,0,0,1,0,0,0,0,0,0
0,5.59795660796518,0.662917807477626,0,0,0,0,1,0,0,0,0,0,0
0,5.6239062150061,0.663871904342793,0,0,0,0,1,0,0,0,0,0,0
0,5.64977946096771,0.664867729169254,0,0,0,0,1,0,0,0,0,0,0
0,5.67576385624393,0.665905637836644,0,0,0,0,1,0,0,0,0,0,0
0,5.70177527722181,0.666973870981817,0,0,0,0,1,0,0,0,0,0,0
0,5.72772574667455,0.668059316621676,0,0,0,0,1,0,0,0,0,0,0
0,5.75359664650806,0.669198229216901,0,0,0,0,1,0,0,0,0,0,0
0,5.779573947148,0.670402899508883,0,0,0,0,1,0,0,0,0,0,0
0,5.80557275087948,0.671638987026725,0,0,0,0,1,0,0,0,0,0,0
0,5.83151187417297,0.672930118028999,0,0,0,0,1,0,0,0,0,0,0
0,5.85733332352554,0.674269447916571,0,0,0,0,1,0,0,0,0,0,0
0,5.88331165551408,0.675624067948491,0,0,0,0,1,0,0,0,0,0,0
0,5.90930690280461,0.67698041698946,0,0,0,0,1,0,0,0,0,0,0
0,5.93526457929088,0.678305431258171,0,0,0,0,1,0,0,0,0,0,0
0,5.9611446597651,0.679619458884504,0,0,0,0,1,0,0,0,0,0,0
0,5.98712669745964,0.680939217168566,0,0,0,0,1,0,0,0,0,0,0
0,6.01312400667909,0.682260481615764,0,0,0,0,1,0,0,0,0,0,0
0,6.0390819468499,0.683547148374372,0,0,0,0,1,0,0,0,0,0,0
0,6.06490644341949,0.684784849660559,0,0,0,0,1,0,0,0,0,0,0
0,6.09091884609887,0.685934377791301,0,0,0,0,1,0,0,0,0,0,0
0,6.11697135919387,0.687008328045318,0,0,0,0,1,0,0,0,0,0,0
0,6.1429622917203,0.687910919380805,0,0,0,0,1,0,0,0,0,0,0
0,6.1689019688641,0.688669436844277,0,0,0,0,1,0,0,0,0,0,0
0,6.19495318723912,0.689298176548108,0,0,0,0,1,0,0,0,0,0,0
0,6.22101511256661,0.689844700172964,0,0,0,0,1,0,0,0,0,0,0
0,6.24695153332232,0.690391942144756,0,0,0,0,1,0,0,0,0,0,0
0,6.27285714396044,0.690966237983859,0,0,0,0,1,0,0,0,0,0,0
0,6.29887287876828,0.691550819524032,0,0,0,0,1,0,0,0,0,0,0
0,6.32492730793809,0.692137802867014,0,0,0,0,1,0,0,0,0,0,0
0,6.35086770196437,0.692703401861194,0,0,0,0,1,0,0,0,0,0,0
0,6.37678764133437,0.693263709578992,0,0,0,0,1,0,0,0,0,0,0
0,6.4028057723374,0.693828619530394,0,0,0,0,1,0,0,0,0,0,0
0,6.42886356270809,0.694392978634838,0,0,0,0,1,0,0,0,0,0,0
0,6.45480076392761,0.694929881763045,0,0,0,0,1,0,0,0,0,0,0
0,6.48072652345983,0.695457268127135,0,0,0,0,1,0,0,0,0,0,0
0,6.50674732325298,0.695983681836679,0,0,0,0,1,0,0,0,0,0,0
0,6.53280966855908,0.696506479043712,0,0,0,0,1,0,0,0,0,0,0
0,6.55874279956212,0.69699696807871,0,0,0,0,1,0,0,0,0,0,0
0,6.58467205243011,0.697478237485987,0,0,0,0,1,0,0,0,0,0,0
0,6.61069521488665,0.697958176970785,0,0,0,0,1,0,0,0,0,0,0
0,6.63675942765393,0.698434476641931,0,0,0,0,1,0,0,0,0,0,0
0,6.66268788297733,0.698879660362158,0,0,0,0,1,0,0,0,0,0,0
0,6.68862075125214,0.699316141438139,0,0,0,0,1,0,0,0,0,0,0
0,6.71464934029618,0.699746026850512,0,0,0,0,1,0,0,0,0,0,0
0,6.74071630596907,0.700160692548055,0,0,0,0,1,0,0,0,0,0,0
0,6.76663885297488,0.700550339234767,0,0,0,0,1,0,0,0,0,0,0
0,6.79257520019228,0.700940023931798,0,0,0,0,1,0,0,0,0,0,0
0,6.81860709677146,0.701317751929775,0,0,0,0,1,0,0,0,0,0,0
0,6.84398944535286,0.70167684257199,0,0,0,0,1,0,0,0,0,0,0
0,6.86917616790197,0.702034950569373,0,0,0,0,1,0,0,0,0,0,0
0,6.89504822792713,0.702393128510198,0,0,0,0,1,0,0,0,0,0,0
0,6.92107603892378,0.702724074329765,0,0,0,0,1,0,0,0,0,0,0
0,6.94715166952716,0.703042141066429,0,0,0,0,1,0,0,0,0,0,0
0,6.97307940318496,0.703332376491443,0,0,0,0,1,0,0,0,0,0,0
0,6.99901700230815,0.703606941062282,0,0,0,0,1,0,0,0,0,0,0
0,7.02504853932254,0.703878251596423,0,0,0,0,1,0,0,0,0,0,0
0,7.05111668147489,0.70414108036987,0,0,0,0,1,0,0,0,0,0,0
0,7.07705440705721,0.704402547681263,0,0,0,0,1,0,0,0,0,0,0
0,7.1030145187204,0.704593637307177,0,0,0,0,1,0,0,0,0,0,0
0,7.12907036053641,0.704672653642557,0,0,0,0,1,0,0,0,0,0,0
0,7.15518674639445,0.704657155202049,0,0,0,0,1,0,0,0,0,0,0
0,7.18112577657446,0.70453387837783,0,0,0,0,1,0,0,0,0,0,0
0,7.20708360446325,0.704312275772968,0,0,0,0,1,0,0,0,0,0,0
0,7.23314078208107,0.703991355971606,0,0,0,0,1,0,0,0,0,0,0
0,7.25921327409845,0.703599799013088,0,0,0,0,1,0,0,0,0,0,0
0,7.28511852133033,0.703177211903573,0,0,0,0,1,0,0,0,0,0,0
0,7.31106710067652,0.702677106571553,0,0,0,0,1,0,0,0,0,0,0
0,7.33709553547104,0.702126291396788,0,0,0,0,1,0,0,0,0,0,0
0,7.36316172969002,0.701571853949396,0,0,0,0,1,0,0,0,0,0,0
0,7.38907751084215,0.700999256302783,0,0,0,0,1,0,0,0,0,0,0
0,7.41501785592033,0.700361295250465,0,0,0,0,1,0,0,0,0,0,0
0,7.44104911737857,0.69967880013505,0,0,0,0,1,0,0,0,0,0,0
0,7.4671362067813,0.698944090647937,0,0,0,0,1,0,0,0,0,0,0
0,7.49307159330235,0.698140230095692,0,0,0,0,1,0,0,0,0,0,0
0,7.51900585820817,0.697285827995476,0,0,0,0,1,0,0,0,0,0,0
0,7.54503175320145,0.696407974612691,0,0,0,0,1,0,0,0,0,0,0
0,7.57110713478284,0.695489107458533,0,0,0,0,1,0,0,0,0,0,0
0,7.59703298550004,0.694540691698716,0,0,0,0,1,0,0,0,0,0,0
0,7.62296437776796,0.693567967938075,0,0,0,0,1,0,0,0,0,0,0
0,7.64898726138565,0.692567907384269,0,0,0,0,1,0,0,0,0,0,0
0,7.67505022240589,0.691539036722934,0,0,0,0,1,0,0,0,0,0,0
0,7.70095536074009,0.690511526699239,0,0,0,0,1,0,0,0,0,0,0
0,7.72688235638011,0.6894722340657,0,0,0,0,1,0,0,0,0,0,0
0,7.75289858237459,0.688430464723299,0,0,0,0,1,0,0,0,0,0,0
0,7.77895742127752,0.687381577531015,0,0,0,0,1,0,0,0,0,0,0
0,7.80486378092228,0.68633755695916,0,0,0,0,1,0,0,0,0,0,0
0,7.83079083896652,0.68528835532694,0,0,0,0,1,0,0,0,0,0,0
0,7.85680793691083,0.684236631449021,0,0,0,0,1,0,0,0,0,0,0
0,7.88286550984612,0.683177736306028,0,0,0,0,1,0,0,0,0,0,0
0,7.90877024817558,0.682123741956884,0,0,0,0,1,0,0,0,0,0,0
0,7.93469605742537,0.681068887370905,0,0,0,0,1,0,0,0,0,0,0
0,7.96071140760074,0.680025112181363,0,0,0,0,1,0,0,0,0,0,0
0,7.98676084476297,0.679001760027964,0,0,0,0,1,0,0,0,0,0,0
0,8.01265718097908,0.6780207777447,0,0,0,0,1,0,0,0,0,0,0
0,8.03858217815475,0.677071564912878,0,0,0,0,1,0,0,0,0,0,0
0,8.06460214257195,0.676143577204105,0,0,0,0,1,0,0,0,0,0,0
0,8.09065659251086,0.675230376332335,0,0,0,0,1,0,0,0,0,0,0
0,8.11656413330338,0.67433543878313,0,0,0,0,1,0,0,0,0,0,0
0,8.14249398088493,0.673468447888449,0,0,0,0,1,0,0,0,0,0,0
0,8.16851728144105,0.672618302671505,0,0,0,0,1,0,0,0,0,0,0
0,8.19456464254761,0.671796738681812,0,0,0,0,1,0,0,0,0,0,0
0,8.22046291969364,0.671020487423359,0,0,0,0,1,0,0,0,0,0,0
0,8.24639090324778,0.670286761490537,0,0,0,0,1,0,0,0,0,0,0
0,8.27241796008471,0.669592070128517,0,0,0,0,1,0,0,0,0,0,0
0,8.2984630521498,0.668926819480404,0,0,0,0,1,0,0,0,0,0,0
0,8.3243593617665,0.668288357281653,0,0,0,0,1,0,0,0,0,0,0
0,8.35029657247787,0.667661688820644,0,0,0,0,1,0,0,0,0,0,0
0,8.3763270211851,0.667066080346758,0,0,0,0,1,0,0,0,0,0,0
0,8.40236990747548,0.666498775251931,0,0,0,0,1,0,0,0,0,0,0
0,8.4282837380904,0.665946231838982,0,0,0,0,1,0,0,0,0,0,0
0,8.45422728231783,0.665401439695254,0,0,0,0,1,0,0,0,0,0,0
0,8.48026027652864,0.664877901738215,0,0,0,0,1,0,0,0,0,0,0
0,8.5062945978611,0.664392895807607,0,0,0,0,1,0,0,0,0,0,0
0,8.53220000344559,0.663942801235261,0,0,0,0,1,0,0,0,0,0,0
0,8.55814007841241,0.663510382906651,0,0,0,0,1,0,0,0,0,0,0
0,8.58417492070152,0.663114949820134,0,0,0,0,1,0,0,0,0,0,0
0,8.61021059193935,0.662746722078768,0,0,0,0,1,0,0,0,0,0,0
0,8.6361469942946,0.662374542245964,0,0,0,0,1,0,0,0,0,0,0
0,8.66209825974964,0.661996883052166,0,0,0,0,1,0,0,0,0,0,0
0,8.68813966376338,0.661621032264111,0,0,0,0,1,0,0,0,0,0,0
0,8.71417234342751,0.661242500736794,0,0,0,0,1,0,0,0,0,0,0
0,8.74011779518766,0.660865547965215,0,0,0,0,1,0,0,0,0,0,0
0,8.76606700779757,0.660503141616358,0,0,0,0,1,0,0,0,0,0,0
0,8.792108457286,0.660153696157299,0,0,0,0,1,0,0,0,0,0,0
0,8.81812890497942,0.65981813472391,0,0,0,0,1,0,0,0,0,0,0
0,8.8440507990073,0.659515934792281,0,0,0,0,1,0,0,0,0,0,0
0,8.86999819095627,0.659237030118728,0,0,0,0,1,0,0,0,0,0,0
0,8.89604130273564,0.658979894976186,0,0,0,0,1,0,0,0,0,0,0
0,8.92206549499054,0.658720936497638,0,0,0,0,1,0,0,0,0,0,0
0,8.94800913549436,0.658455802729639,0,0,0,0,1,0,0,0,0,0,0
0,8.97396493271172,0.658185612537147,0,0,0,0,1,0,0,0,0,0,0
0,9.00000708754788,0.657925035672564,0,0,0,0,1,0,0,0,0,0,0
0,9.02602394497832,0.657689322174243,0,0,0,0,1,0,0,0,0,0,0
0,9.05195107211851,0.657468488637192,0,0,0,0,1,0,0,0,0,0,0
0,9.07790809047046,0.657243335798048,0,0,0,0,1,0,0,0,0,0,0
0,9.10395416082685,0.657020910485445,0,0,0,0,1,0,0,0,0,0,0
0,9.12997382421101,0.656795264334778,0,0,0,0,1,0,0,0,0,0,0
0,9.15592591558709,0.656567600288358,0,0,0,0,1,0,0,0,0,0,0
0,9.1818824177119,0.656348981857101,0,0,0,0,1,0,0,0,0,0,0
0,9.20792873520401,0.656139305367535,0,0,0,0,1,0,0,0,0,0,0
0,9.23394015281792,0.655938839548626,0,0,0,0,1,0,0,0,0,0,0
0,9.25987144418611,0.655763242148818,0,0,0,0,1,0,0,0,0,0,0
0,9.28582756222084,0.655602674046727,0,0,0,0,1,0,0,0,0,0,0
0,9.31187482613324,0.655457249883189,0,0,0,0,1,0,0,0,0,0,0
0,9.33789827594802,0.655309518067114,0,0,0,0,1,0,0,0,0,0,0
0,9.36384860855891,0.655154131335287,0,0,0,0,1,0,0,0,0,0,0
0,9.38981056815459,0.654994918815428,0,0,0,0,1,0,0,0,0,0,0
0,9.41585633972355,0.654845905031062,0,0,0,0,1,0,0,0,0,0,0
0,9.44187658715553,0.654713211155697,0,0,0,0,1,0,0,0,0,0,0
0,9.46782726453594,0.654573772577604,0,0,0,0,1,0,0,0,0,0,0
0,9.49379057019377,0.654430678588619,0,0,0,0,1,0,0,0,0,0,0
0,9.51983716837062,0.654297872409295,0,0,0,0,1,0,0,0,0,0,0
0,9.54532153348841,0.654192036620863,0,0,0,0,1,0,0,0,0,0,0
0,9.570485113832,0.654131855117638,0,0,0,0,1,0,0,0,0,0,0
0,9.59541165976796,0.65409549136509,0,0,0,0,1,0,0,0,0,0,0
0,9.62111984111422,0.654061593978482,0,0,0,0,1,0,0,0,0,0,0
0,9.64633489886108,0.654042814877599,0,0,0,0,1,0,0,0,0,0,0
0,9.67143293190012,0.654070200195244,0,0,0,0,1,0,0,0,0,0,0
0,9.69635355534967,0.654124778053008,0,0,0,0,1,0,0,0,0,0,0
0,9.72205883130284,0.654189949901668,0,0,0,0,1,0,0,0,0,0,0
0,9.74725434906212,0.654265813048569,0,0,0,0,1,0,0,0,0,0,0
0,9.77239342920064,0.654369158159392,0,0,0,0,1,0,0,0,0,0,0
0,9.79731189312097,0.654490597919506,0,0,0,0,1,0,0,0,0,0,0
0,9.823010878874,0.654612797519331,0,0,0,0,1,0,0,0,0,0,0
0,9.84810727203422,0.654742864481221,0,0,0,0,1,0,0,0,0,0,0
0,9.87198765398027,0.654856235389937,0,0,0,0,1,0,0,0,0,0,0
0,9.89420782535881,0.654939419829497,0,0,0,0,1,0,0,0,0,0,0
0,9.91274499425083,0.6550126529957,0,0,0,0,1,0,0,0,0,0,0
0,9.92223240853683,0.655066575528039,0,0,0,0,1,0,0,0,0,0,0
0,9.92389219449757,0.655086880676075,0,0,0,0,1,0,0,0,0,0,0
0,9.92393323013519,0.655089832469195,0,0,0,0,1,0,0,0,0,0,0
0,9.92397331490882,0.655092830707251,0,0,0,0,1,0,0,0,0,0,0
0,9.92401269868511,0.655095845462803,0,0,0,0,1,0,0,0,0,0,0
0,9.9240521484663,0.655098895827763,0,0,0,0,1,0,0,0,0,0,0
0,9.924091766817,0.655101974909211,0,0,0,0,1,0,0,0,0,0,0
0,9.92413153391354,0.655105075868773,0,0,0,0,1,0,0,0,0,0,0
0,9.92417142159037,0.655108186348732,0,0,0,0,1,0,0,0,0,0,0
0,9.9270362255857,0.655152730857808,0,0,0,0,1,0,0,0,0,0,0
0,9.93734552966736,0.655258220604981,0,0,0,0,1,0,0,0,0,0,0
0,9.95255469353775,0.655144481664726,0,0,0,0,1,0,0,0,0,0,0
0,9.97054468247272,0.654554904764,0,0,0,0,1,0,0,0,0,0,0
0,9.9943072055148,0.653615435132036,0,0,0,0,1,0,0,0,0,0,0
0,10.0203283127474,0.65262418369122,0,0,0,0,1,0,0,0,0,0,0
0,10.0462900919631,0.651760107590946,0,0,0,0,1,0,0,0,0,0,0
0,10.0721719875386,0.651010649911148,0,0,0,0,1,0,0,0,0,0,0
0,10.0981123147756,0.65035321716197,0,0,0,0,1,0,0,0,0,0,0
0,10.1241458110446,0.649781427756693,0,0,0,0,1,0,0,0,0,0,0
0,10.1501168206822,0.649293776103642,0,0,0,0,1,0,0,0,0,0,0
0,10.1760430653892,0.648876256440756,0,0,0,0,1,0,0,0,0,0,0
0,10.2019916285049,0.648547142648887,0,0,0,0,1,0,0,0,0,0,0
0,10.2280260671177,0.648302093080879,0,0,0,0,1,0,0,0,0,0,0
0,10.2539949291505,0.648136177350583,0,0,0,0,1,0,0,0,0,0,0
0,10.2799200958576,0.648022540270105,0,0,0,0,1,0,0,0,0,0,0
0,10.3058850049428,0.647950367911522,0,0,0,0,1,0,0,0,0,0,0
0,10.3319251262207,0.647913942641532,0,0,0,0,1,0,0,0,0,0,0
0,10.3578666020856,0.647916628670422,0,0,0,0,1,0,0,0,0,0,0
0,10.3838028466551,0.647956575529062,0,0,0,0,1,0,0,0,0,0,0
0,10.4097711685491,0.648030075601053,0,0,0,0,1,0,0,0,0,0,0
0,10.435809756333,0.648130527719664,0,0,0,0,1,0,0,0,0,0,0
0,10.461811479071,0.648250631908034,0,0,0,0,1,0,0,0,0,0,0
0,10.4877275607439,0.648367146766303,0,0,0,0,1,0,0,0,0,0,0
0,10.5136977140042,0.648489056174936,0,0,0,0,1,0,0,0,0,0,0
0,10.5397478601628,0.648618614974878,0,0,0,0,1,0,0,0,0,0,0
0,10.5657653720081,0.648750348849981,0,0,0,0,1,0,0,0,0,0,0
0,10.5916821387095,0.648875487313936,0,0,0,0,1,0,0,0,0,0,0
0,10.617653897844,0.649007075378739,0,0,0,0,1,0,0,0,0,0,0
0,10.6437045614223,0.649146167097759,0,0,0,0,1,0,0,0,0,0,0
0,10.6697210416814,0.64928709495203,0,0,0,0,1,0,0,0,0,0,0
0,10.6956359475875,0.649421929612832,0,0,0,0,1,0,0,0,0,0,0
0,10.7216088277816,0.649563508470567,0,0,0,0,1,0,0,0,0,0,0
0,10.74765981579,0.649712623535248,0,0,0,0,1,0,0,0,0,0,0
0,10.7736752326092,0.649863055541032,0,0,0,0,1,0,0,0,0,0,0
0,10.7995876168884,0.650007874471521,0,0,0,0,1,0,0,0,0,0,0
0,10.8255614827924,0.650159784511088,0,0,0,0,1,0,0,0,0,0,0
0,10.8516147584994,0.650316515934374,0,0,0,0,1,0,0,0,0,0,0
0,10.8776328516338,0.65046376422138,0,0,0,0,1,0,0,0,0,0,0
0,10.9035528149402,0.650597248927433,0,0,0,0,1,0,0,0,0,0,0
0,10.9295302598267,0.650735773758713,0,0,0,0,1,0,0,0,0,0,0
0,10.9555853505115,0.650874277613842,0,0,0,0,1,0,0,0,0,0,0
0,10.9815981735536,0.651006451529602,0,0,0,0,1,0,0,0,0,0,0
0,11.0075114763011,0.651133685075812,0,0,0,0,1,0,0,0,0,0,0
0,11.0334880571909,0.651267765249214,0,0,0,0,1,0,0,0,0,0,0
0,11.059540638842,0.651409215968995,0,0,0,0,1,0,0,0,0,0,0
0,11.0855584551265,0.651546900645166,0,0,0,0,1,0,0,0,0,0,0
0,11.1114777894792,0.651672005206618,0,0,0,0,1,0,0,0,0,0,0
0,11.1374574264708,0.651802112749129,0,0,0,0,1,0,0,0,0,0,0
0,11.1635135112294,0.651932479737573,0,0,0,0,1,0,0,0,0,0,0
0,11.1895249412386,0.652055343399834,0,0,0,0,1,0,0,0,0,0,0
0,11.2154372297155,0.652174334069899,0,0,0,0,1,0,0,0,0,0,0
0,11.2414162501074,0.65230014366503,0,0,0,0,1,0,0,0,0,0,0
0,11.2674720632432,0.652430486694204,0,0,0,0,1,0,0,0,0,0,0
0,11.293486969174,0.652548871014332,0,0,0,0,1,0,0,0,0,0,0
0,11.3194049515405,0.652655720310962,0,0,0,0,1,0,0,0,0,0,0
0,11.3453855266612,0.652769146628639,0,0,0,0,1,0,0,0,0,0,0
0,11.3714426063205,0.652886544743695,0,0,0,0,1,0,0,0,0,0,0
0,11.3974571167535,0.65299012191413,0,0,0,0,1,0,0,0,0,0,0
0,11.4233752397091,0.653081995976535,0,0,0,0,1,0,0,0,0,0,0
0,11.4493568203917,0.653180416437204,0,0,0,0,1,0,0,0,0,0,0
0,11.4754144031966,0.653282972643871,0,0,0,0,1,0,0,0,0,0,0
0,11.5014281854577,0.653371583729451,0,0,0,0,1,0,0,0,0,0,0
0,11.5273464565888,0.653449123766667,0,0,0,0,1,0,0,0,0,0,0
0,11.5533306098151,0.653531408434665,0,0,0,0,1,0,0,0,0,0,0
0,11.5793893229338,0.653613948112142,0,0,0,0,1,0,0,0,0,0,0
0,11.6053981252454,0.653686512065692,0,0,0,0,1,0,0,0,0,0,0
0,11.6313113624739,0.653757818364064,0,0,0,0,1,0,0,0,0,0,0
0,11.6572957162751,0.653834890199746,0,0,0,0,1,0,0,0,0,0,0
0,11.6833543737136,0.653916843568044,0,0,0,0,1,0,0,0,0,0,0
0,11.7093658100596,0.653984329136514,0,0,0,0,1,0,0,0,0,0,0
0,11.7352837617557,0.654043817816673,0,0,0,0,1,0,0,0,0,0,0
0,11.7612717337724,0.654106505068689,0,0,0,0,1,0,0,0,0,0,0
0,11.7873314841746,0.654173912236914,0,0,0,0,1,0,0,0,0,0,0
0,11.8133416938785,0.654225195677091,0,0,0,0,1,0,0,0,0,0,0
0,11.8392608233233,0.654269949482641,0,0,0,0,1,0,0,0,0,0,0
0,11.8652506587449,0.654315491037096,0,0,0,0,1,0,0,0,0,0,0
0,11.891311863296,0.654363501170918,0,0,0,0,1,0,0,0,0,0,0
0,11.9173220821074,0.654392673712432,0,0,0,0,1,0,0,0,0,0,0
0,11.9432425286143,0.654413430345911,0,0,0,0,1,0,0,0,0,0,0
0,11.9692340085906,0.654435597307784,0,0,0,0,1,0,0,0,0,0,0
0,11.9952911000333,0.654461601835168,0,0,0,0,1,0,0,0,0,0,0
0,12.0212966877387,0.654483416817735,0,0,0,0,1,0,0,0,0,0,0
0,12.0472137441692,0.654507661230636,0,0,0,0,1,0,0,0,0,0,0
0,12.0732060608661,0.654533982442454,0,0,0,0,1,0,0,0,0,0,0
0,12.0992677157133,0.654561181099799,0,0,0,0,1,0,0,0,0,0,0
0,12.1252713624033,0.654575023887406,0,0,0,0,1,0,0,0,0,0,0
0,12.1511881787851,0.654591410522907,0,0,0,0,1,0,0,0,0,0,0
0,12.1771816719677,0.654608646146851,0,0,0,0,1,0,0,0,0,0,0
0,12.2032396193195,0.654630124885244,0,0,0,0,1,0,0,0,0,0,0
0,12.2292429348832,0.654646038439389,0,0,0,0,1,0,0,0,0,0,0
0,12.2551598588794,0.654665556949501,0,0,0,0,1,0,0,0,0,0,0
0,12.2811542487175,0.654686910196958,0,0,0,0,1,0,0,0,0,0,0
0,12.3072165534717,0.654709457847975,0,0,0,0,1,0,0,0,0,0,0
0,12.3332176118494,0.654717499394371,0,0,0,0,1,0,0,0,0,0,0
0,12.3591350074352,0.654729309972349,0,0,0,0,1,0,0,0,0,0,0
0,12.3851305595295,0.654742885990098,0,0,0,0,1,0,0,0,0,0,0
0,12.411189317939,0.654760939847654,0,0,0,0,1,0,0,0,0,0,0
0,12.4371899024987,0.654772559416944,0,0,0,0,1,0,0,0,0,0,0
0,12.4631069036974,0.65478834255621,0,0,0,0,1,0,0,0,0,0,0
0,12.4891034797023,0.654806023457284,0,0,0,0,1,0,0,0,0,0,0
0,12.5151665426059,0.654824972022207,0,0,0,0,1,0,0,0,0,0,0
0,12.5411648751243,0.654828667896562,0,0,0,0,1,0,0,0,0,0,0
0,12.5670824306425,0.654836595502126,0,0,0,0,1,0,0,0,0,0,0
0,12.5930800814259,0.654846397302862,0,0,0,0,1,0,0,0,0,0,0
0,12.6191394382621,0.654860805148958,0,0,0,0,1,0,0,0,0,0,0
0,12.6451369174999,0.654868129350132,0,0,0,0,1,0,0,0,0,0,0
0,12.6710542829474,0.654879747351529,0,0,0,0,1,0,0,0,0,0,0
0,12.6970541873167,0.654888668666739,0,0,0,0,1,0,0,0,0,0,0
0,12.7231192262609,0.654893988531865,0,0,0,0,1,0,0,0,0,0,0
0,12.7491143790221,0.654882768408542,0,0,0,0,1,0,0,0,0,0,0
0,12.7750330936656,0.654875596530511,0,0,0,0,1,0,0,0,0,0,0
0,12.8010328046429,0.654870490641261,0,0,0,0,1,0,0,0,0,0,0
0,12.8270903556195,0.654869611448591,0,0,0,0,1,0,0,0,0,0,0
0,12.8530824199824,0.654861704710527,0,0,0,0,1,0,0,0,0,0,0
0,12.8790011540576,0.654857146036726,0,0,0,0,1,0,0,0,0,0,0
0,12.9050019439209,0.654854957833238,0,0,0,0,1,0,0,0,0,0,0
0,12.931060390772,0.654857009000912,0,0,0,0,1,0,0,0,0,0,0
0,12.9570510762063,0.65485217701195,0,0,0,0,1,0,0,0,0,0,0
0,12.9829699930148,0.654850456649178,0,0,0,0,1,0,0,0,0,0,0
0,13.0089720186342,0.654851448690542,0,0,0,0,1,0,0,0,0,0,0
0,13.0350315343026,0.654856606625254,0,0,0,0,1,0,0,0,0,0,0
0,13.0610209426741,0.654855142259335,0,0,0,0,1,0,0,0,0,0,0
0,13.0869399861579,0.654856559939636,0,0,0,0,1,0,0,0,0,0,0
0,13.1129446157578,0.654857213058846,0,0,0,0,1,0,0,0,0,0,0
0,13.1390047783814,0.654859558536147,0,0,0,0,1,0,0,0,0,0,0
0,13.1649917127593,0.654854445674716,0,0,0,0,1,0,0,0,0,0,0
0,13.1909115738026,0.654851463555826,0,0,0,0,1,0,0,0,0,0,0
0,13.2169171183945,0.654848644629122,0,0,0,0,1,0,0,0,0,0,0
0,13.2429762491131,0.654845697855305,0,0,0,0,1,0,0,0,0,0,0
0,13.2689608228048,0.654836054769518,0,0,0,0,1,0,0,0,0,0,0
0,13.2948815670232,0.654827451744786,0,0,0,0,1,0,0,0,0,0,0
0,13.3208868482284,0.654821952511316,0,0,0,0,1,0,0,0,0,0,0
0,13.3469454754466,0.65481999956183,0,0,0,0,1,0,0,0,0,0,0
0,13.3729282881656,0.654812446459071,0,0,0,0,1,0,0,0,0,0,0
0,13.3988495947305,0.654805236440639,0,0,0,0,1,0,0,0,0,0,0
0,13.4248560908766,0.6548013062724,0,0,0,0,1,0,0,0,0,0,0
0,13.4509153278499,0.654800776906361,0,0,0,0,1,0,0,0,0,0,0
0,13.4768963971009,0.654795172448595,0,0,0,0,1,0,0,0,0,0,0
0,13.5028182783298,0.654789195695046,0,0,0,0,1,0,0,0,0,0,0
0,13.5288267473151,0.654784555826864,0,0,0,0,1,0,0,0,0,0,0
0,13.5548853053099,0.65477808496282,0,0,0,0,1,0,0,0,0,0,0
0,13.5808638063801,0.65476696142969,0,0,0,0,1,0,0,0,0,0,0
0,13.606786866604,0.654754640046251,0,0,0,0,1,0,0,0,0,0,0
0,13.6327963465121,0.65474544566274,0,0,0,0,1,0,0,0,0,0,0
0,13.6588538231907,0.654733681786417,0,0,0,0,1,0,0,0,0,0,0
0,13.6848300999509,0.654717846576929,0,0,0,0,1,0,0,0,0,0,0
0,13.7107540798074,0.654699728020185,0,0,0,0,1,0,0,0,0,0,0
0,13.7367635622978,0.654687279786916,0,0,0,0,1,0,0,0,0,0,0
0,13.762820962178,0.654677770043873,0,0,0,0,1,0,0,0,0,0,0
0,13.7887955512212,0.654664416148042,0,0,0,0,1,0,0,0,0,0,0
0,13.8147204082203,0.654647786870224,0,0,0,0,1,0,0,0,0,0,0
0,13.8407322094477,0.654633604354561,0,0,0,0,1,0,0,0,0,0,0
0,13.8667883833709,0.654616089155659,0,0,0,0,1,0,0,0,0,0,0
0,13.8927609445678,0.654594927444451,0,0,0,0,1,0,0,0,0,0,0
0,13.9186869104552,0.654569606904652,0,0,0,0,1,0,0,0,0,0,0
0,13.9446986672789,0.654549385339927,0,0,0,0,1,0,0,0,0,0,0
0,13.9707540186718,0.654531715372333,0,0,0,0,1,0,0,0,0,0,0
0,13.9967249066223,0.654510367829664,0,0,0,0,1,0,0,0,0,0,0
0,14.0226514773971,0.654485320332134,0,0,0,0,1,0,0,0,0,0,0
0,14.0486642094697,0.654466807311432,0,0,0,0,1,0,0,0,0,0,0
0,14.0747199254997,0.654450867126762,0,0,0,0,1,0,0,0,0,0,0
0,14.100689105464,0.654431275509818,0,0,0,0,1,0,0,0,0,0,0
0,14.126616541593,0.654407771987543,0,0,0,0,1,0,0,0,0,0,0
0,14.1526303520603,0.654390246109204,0,0,0,0,1,0,0,0,0,0,0
0,14.1786859300507,0.654375207827409,0,0,0,0,1,0,0,0,0,0,0
0,14.2046533416335,0.654356462540549,0,0,0,0,1,0,0,0,0,0,0
0,14.2305817351597,0.654334225544363,0,0,0,0,1,0,0,0,0,0,0
0,14.2565966607224,0.654318645132466,0,0,0,0,1,0,0,0,0,0,0
0,14.2826523766113,0.654305480756336,0,0,0,0,1,0,0,0,0,0,0
0,14.3086180206144,0.654288609977727,0,0,0,0,1,0,0,0,0,0,0
0,14.3345473156495,0.65426852413779,0,0,0,0,1,0,0,0,0,0,0
0,14.360563202477,0.654255066622305,0,0,0,0,1,0,0,0,0,0,0
0,14.3866191395432,0.654244001660567,0,0,0,0,1,0,0,0,0,0,0
0,14.4125829712142,0.654229204518852,0,0,0,0,1,0,0,0,0,0,0
0,14.438513382646,0.654211483082433,0,0,0,0,1,0,0,0,0,0,0
0,14.4645304212707,0.654200351205444,0,0,0,0,1,0,0,0,0,0,0
0,14.4905865029402,0.65419154592073,0,0,0,0,1,0,0,0,0,0,0
0,14.5165485406861,0.654178954028416,0,0,0,0,1,0,0,0,0,0,0
0,14.5424800976213,0.654163774816738,0,0,0,0,1,0,0,0,0,0,0
0,14.5684981020844,0.654155128665653,0,0,0,0,1,0,0,0,0,0,0
0,14.5945542277116,0.654148768944964,0,0,0,0,1,0,0,0,0,0,0
0,14.620514355331,0.65413849891087,0,0,0,0,1,0,0,0,0,0,0
0,14.6464473521675,0.654126054330401,0,0,0,0,1,0,0,0,0,0,0
0,14.6724665158191,0.654120066154747,0,0,0,0,1,0,0,0,0,0,0
0,14.6985230226418,0.654116314047869,0,0,0,0,1,0,0,0,0,0,0
0,14.7244811614191,0.654108643247311,0,0,0,0,1,0,0,0,0,0,0
0,14.7504153956525,0.654099118500126,0,0,0,0,1,0,0,0,0,0,0
0,14.7764355298282,0.654096009327519,0,0,0,0,1,0,0,0,0,0,0
0,14.8024924078909,0.654095151103573,0,0,0,0,1,0,0,0,0,0,0
0,14.8284486109142,0.654090365021287,0,0,0,0,1,0,0,0,0,0,0
0,14.8543756027671,0.654098664446376,0,0,0,0,1,0,0,0,0,0,0
0,14.8803939120576,0.654142849721234,0,0,0,0,1,0,0,0,0,0,0
0,14.9064532620595,0.654192432363846,0,0,0,0,1,0,0,0,0,0,0
0,14.9324050445016,0.654224360901691,0,0,0,0,1,0,0,0,0,0,0
0,14.9583407318824,0.654247853045932,0,0,0,0,1,0,0,0,0,0,0
0,14.9843633182787,0.654274748901169,0,0,0,0,1,0,0,0,0,0,0
0,15.0104213138746,0.654303602981852,0,0,0,0,1,0,0,0,0,0,0
0,15.03637317336,0.654328416804454,0,0,0,0,1,0,0,0,0,0,0
0,15.0623118192155,0.654352871129172,0,0,0,0,1,0,0,0,0,0,0
0,15.0883356760168,0.654383565701845,0,0,0,0,1,0,0,0,0,0,0
0,15.11439287294,0.654417110854692,0,0,0,0,1,0,0,0,0,0,0
0,15.1403426415119,0.654446087101245,0,0,0,0,1,0,0,0,0,0,0
0,15.1662824743671,0.65447501424514,0,0,0,0,1,0,0,0,0,0,0
0,15.1923113146663,0.6545050706219,0,0,0,0,1,0,0,0,0,0,0
0,15.2183689350157,0.654532597954541,0,0,0,0,1,0,0,0,0,0,0
0,15.2443170360937,0.654553959648661,0,0,0,0,1,0,0,0,0,0,0
0,15.2702587321129,0.654575581487314,0,0,0,0,1,0,0,0,0,0,0
0,15.2962658477073,0.65463673058234,0,0,0,0,1,0,0,0,0,0,0
0,15.3222382450281,0.654812664465288,0,0,0,0,1,0,0,0,0,0,0
0,15.348193611076,0.655094497437999,0,0,0,0,1,0,0,0,0,0,0
0,15.3740974057257,0.655498317462554,0,0,0,0,1,0,0,0,0,0,0
0,15.4000960106867,0.656012374568547,0,0,0,0,1,0,0,0,0,0,0
0,15.4260813751477,0.656620992811289,0,0,0,0,1,0,0,0,0,0,0
0,15.4520246723651,0.65731050933878,0,0,0,0,1,0,0,0,0,0,0
0,15.477914832424,0.65806556086331,0,0,0,0,1,0,0,0,0,0,0
0,15.5039042475889,0.658896130366516,0,0,0,0,1,0,0,0,0,0,0
0,15.5299015609357,0.659802376043792,0,0,0,0,1,0,0,0,0,0,0
0,15.5558522061004,0.660745701889725,0,0,0,0,1,0,0,0,0,0,0
0,15.5817400115518,0.661742430972831,0,0,0,0,1,0,0,0,0,0,0
0,15.6077270449207,0.662800219364182,0,0,0,0,1,0,0,0,0,0,0
0,15.6336955207144,0.663900280688061,0,0,0,0,1,0,0,0,0,0,0
0,15.6596511485174,0.665019056518241,0,0,0,0,1,0,0,0,0,0,0
0,15.6855436008137,0.666148791949151,0,0,0,0,1,0,0,0,0,0,0
0,15.7115368675911,0.66730011076945,0,0,0,0,1,0,0,0,0,0,0
0,15.7375249612306,0.668460327559644,0,0,0,0,1,0,0,0,0,0,0
0,15.7625503870485,0.669555713272836,0,0,0,0,1,0,0,0,0,0,0
0,15.7879152308701,0.670714117554379,0,0,0,0,1,0,0,0,0,0,0
0,15.8138780482132,0.671997708685934,0,0,0,0,1,0,0,0,0,0,0
0,15.8395464402276,0.673339293569766,0,0,0,0,1,0,0,0,0,0,0
0,15.8651217882537,0.674634147952132,0,0,0,0,1,0,0,0,0,0,0
0,15.891001252087,0.675942044979769,0,0,0,0,1,0,0,0,0,0,0
0,15.9158257702388,0.677206611420168,0,0,0,0,1,0,0,0,0,0,0
0,15.9411612592981,0.67846633049788,0,0,0,0,1,0,0,0,0,0,0
0,15.96712075891,0.679703185715619,0,0,0,0,1,0,0,0,0,0,0
0,15.9930021668092,0.680941697747708,0,0,0,0,1,0,0,0,0,0,0
0,16.0189824211683,0.68219418233626,0,0,0,0,1,0,0,0,0,0,0
0,16.0449734474032,0.683454483982576,0,0,0,0,1,0,0,0,0,0,0
0,16.0709693278823,0.684647188683679,0,0,0,0,1,0,0,0,0,0,0
0,16.0968801970987,0.685694804516588,0,0,0,0,1,0,0,0,0,0,0
0,16.1229221156536,0.686597289065178,0,0,0,0,1,0,0,0,0,0,0
0,16.1482691680597,0.687388413780456,0,0,0,0,1,0,0,0,0,0,0
0,16.1720886682758,0.688044471290708,0,0,0,0,1,0,0,0,0,0,0
0,16.1965080909982,0.688651872304122,0,0,0,0,1,0,0,0,0,0,0
0,16.2225271088698,0.689251444616977,0,0,0,0,1,0,0,0,0,0,0
0,16.2486141742318,0.689752223194825,0,0,0,0,1,0,0,0,0,0,0
0,16.2746232740696,0.690126395343163,0,0,0,0,1,0,0,0,0,0,0
0,16.3005283708999,0.690432484706061,0,0,0,0,1,0,0,0,0,0,0
0,16.3265225792129,0.690785212428302,0,0,0,0,1,0,0,0,0,0,0
0,16.3526000735698,0.691164153863319,0,0,0,0,1,0,0,0,0,0,0
0,16.3785967268775,0.691466822061361,0,0,0,0,1,0,0,0,0,0,0
0,16.4045156219399,0.691686798202175,0,0,0,0,1,0,0,0,0,0,0
0,16.4305527626241,0.691823379318908,0,0,0,0,1,0,0,0,0,0,0
0,16.4556473856629,0.691876628982316,0,0,0,0,1,0,0,0,0,0,0
0,16.4810004087537,0.691852495317746,0,0,0,0,1,0,0,0,0,0,0
0,16.5068676934356,0.691763978789875,0,0,0,0,1,0,0,0,0,0,0
0,16.5328871928106,0.691608541030269,0,0,0,0,1,0,0,0,0,0,0
0,16.5589756281333,0.69140029934324,0,0,0,0,1,0,0,0,0,0,0
0,16.5849659365681,0.691128958710412,0,0,0,0,1,0,0,0,0,0,0
0,16.6108857909701,0.690799258060514,0,0,0,0,1,0,0,0,0,0,0
0,16.636901218997,0.690427452709701,0,0,0,0,1,0,0,0,0,0,0
0,16.6629803037873,0.690002517552793,0,0,0,0,1,0,0,0,0,0,0
0,16.6889653808234,0.689514545887467,0,0,0,0,1,0,0,0,0,0,0
0,16.7148925033259,0.688960939982729,0,0,0,0,1,0,0,0,0,0,0
0,16.7409049072127,0.688362018715282,0,0,0,0,1,0,0,0,0,0,0
0,16.7669753577414,0.687719825910882,0,0,0,0,1,0,0,0,0,0,0
0,16.7929416301759,0.687051680065437,0,0,0,0,1,0,0,0,0,0,0
0,16.8188609102031,0.686346494998777,0,0,0,0,1,0,0,0,0,0,0
0,16.8448636097379,0.685622779956163,0,0,0,0,1,0,0,0,0,0,0
0,16.8709267501314,0.684894551519939,0,0,0,0,1,0,0,0,0,0,0
0,16.8968869938141,0.684156612872337,0,0,0,0,1,0,0,0,0,0,0
0,16.9228028584189,0.683393640458164,0,0,0,0,1,0,0,0,0,0,0
0,16.9488048193027,0.682623687662978,0,0,0,0,1,0,0,0,0,0,0
0,16.9748665591678,0.681851280604146,0,0,0,0,1,0,0,0,0,0,0
0,17.0008239560691,0.681072410783392,0,0,0,0,1,0,0,0,0,0,0
0,17.0267375688142,0.680273034912061,0,0,0,0,1,0,0,0,0,0,0
0,17.0527393094376,0.679474318242511,0,0,0,0,1,0,0,0,0,0,0
0,17.0788005058541,0.678673321312998,0,0,0,0,1,0,0,0,0,0,0
0,17.1047461828185,0.677872249039779,0,0,0,0,1,0,0,0,0,0,0
0,17.1306591994521,0.677062440505289,0,0,0,0,1,0,0,0,0,0,0
0,17.1566618347911,0.676253550329967,0,0,0,0,1,0,0,0,0,0,0
0,17.1827225984144,0.675442448280515,0,0,0,0,1,0,0,0,0,0,0
0,17.2086665614171,0.674631148779777,0,0,0,0,1,0,0,0,0,0,0
0,17.2345782655762,0.673814927333115,0,0,0,0,1,0,0,0,0,0,0
0,17.2605790133966,0.673013842031205,0,0,0,0,1,0,0,0,0,0,0
0,17.2866344454996,0.672239711717438,0,0,0,0,1,0,0,0,0,0,0
0,17.3125836308773,0.671491401400719,0,0,0,0,1,0,0,0,0,0,0
0,17.3384960640861,0.670748192611226,0,0,0,0,1,0,0,0,0,0,0
0,17.3645000495301,0.670028255573406,0,0,0,0,1,0,0,0,0,0,0
0,17.3905584888588,0.669325639312008,0,0,0,0,1,0,0,0,0,0,0
0,17.4164869525694,0.668639089959319,0,0,0,0,1,0,0,0,0,0,0
0,17.4423951513407,0.667984972984257,0,0,0,0,1,0,0,0,0,0,0
0,17.4684006555516,0.667364771807205,0,0,0,0,1,0,0,0,0,0,0
0,17.494455510764,0.66677206311592,0,0,0,0,1,0,0,0,0,0,0
0,17.520410438934,0.666188051418841,0,0,0,0,1,0,0,0,0,0,0
0,17.5463244231027,0.665617686611023,0,0,0,0,1,0,0,0,0,0,0
0,17.5723319292396,0.665088594007614,0,0,0,0,1,0,0,0,0,0,0
0,17.598381892835,0.664594822491027,0,0,0,0,1,0,0,0,0,0,0
0,17.6243383027442,0.664117472112123,0,0,0,0,1,0,0,0,0,0,0
0,17.6502579781646,0.663655817176369,0,0,0,0,1,0,0,0,0,0,0
0,17.6762695289861,0.663229025413934,0,0,0,0,1,0,0,0,0,0,0
0,17.7023150028386,0.662830716398695,0,0,0,0,1,0,0,0,0,0,0
0,17.7282746879753,0.662436847790039,0,0,0,0,1,0,0,0,0,0,0
0,17.7542061019659,0.662036900675458,0,0,0,0,1,0,0,0,0,0,0
0,17.7802224635446,0.661643967129029,0,0,0,0,1,0,0,0,0,0,0
0,17.8062641645021,0.66127005464807,0,0,0,0,1,0,0,0,0,0,0
0,17.8322105194825,0.66091631690799,0,0,0,0,1,0,0,0,0,0,0
0,17.8581365999127,0.660586153889613,0,0,0,0,1,0,0,0,0,0,0
0,17.8841553881116,0.660269917539833,0,0,0,0,1,0,0,0,0,0,0
0,17.9101966471974,0.659955745849166,0,0,0,0,1,0,0,0,0,0,0
0,17.9361577221174,0.659628470547052,0,0,0,0,1,0,0,0,0,0,0
0,17.9620826100918,0.659308630311268,0,0,0,0,1,0,0,0,0,0,0
0,17.9880997063563,0.659024294305932,0,0,0,0,1,0,0,0,0,0,0
0,18.0141363267514,0.658752505731955,0,0,0,0,1,0,0,0,0,0,0
0,18.0400987997681,0.658467413261068,0,0,0,0,1,0,0,0,0,0,0
0,18.0660268721406,0.658187302102987,0,0,0,0,1,0,0,0,0,0,0
0,18.092044365465,0.657941893276262,0,0,0,0,1,0,0,0,0,0,0
0,18.1180763913994,0.657717501556703,0,0,0,0,1,0,0,0,0,0,0
0,18.1440445652328,0.657481693768351,0,0,0,0,1,0,0,0,0,0,0
0,18.169981427759,0.657239259542741,0,0,0,0,1,0,0,0,0,0,0
0,18.1960018255654,0.657008465872989,0,0,0,0,1,0,0,0,0,0,0
0,18.2220243594897,0.656806585621186,0,0,0,0,1,0,0,0,0,0,0
0,18.2479881566467,0.656611075466042,0,0,0,0,1,0,0,0,0,0,0
0,18.2739266585251,0.65641009648862,0,0,0,0,1,0,0,0,0,0,0
0,18.2999510549437,0.656213724577658,0,0,0,0,1,0,0,0,0,0,0
0,18.3259782412414,0.656017655935226,0,0,0,0,1,0,0,0,0,0,0
0,18.3519505232517,0.655812843663713,0,0,0,0,1,0,0,0,0,0,0
0,18.3778884438725,0.655602550481548,0,0,0,0,1,0,0,0,0,0,0
0,18.4039118319028,0.655405230862155,0,0,0,0,1,0,0,0,0,0,0
0,18.4299270648838,0.65523156314258,0,0,0,0,1,0,0,0,0,0,0
0,18.4558824147923,0.655081675455251,0,0,0,0,1,0,0,0,0,0,0
0,18.4818116935904,0.654966106107589,0,0,0,0,1,0,0,0,0,0,0
0,18.5078357370239,0.654881530012701,0,0,0,0,1,0,0,0,0,0,0
0,18.5338738014045,0.654798554205986,0,0,0,0,1,0,0,0,0,0,0
0,18.5598416346018,0.65470910202155,0,0,0,0,1,0,0,0,0,0,0
0,18.584820418219,0.654614505039329,0,0,0,0,1,0,0,0,0,0,0
0,18.6105052781042,0.654526205849538,0,0,0,0,1,0,0,0,0,0,0
0,18.6355992324199,0.654456614727122,0,0,0,0,1,0,0,0,0,0,0
0,18.6610568656885,0.654397104136882,0,0,0,0,1,0,0,0,0,0,0
0,18.6859922935615,0.654333274543318,0,0,0,0,1,0,0,0,0,0,0
0,18.7116470618797,0.654275718418947,0,0,0,0,1,0,0,0,0,0,0
0,18.7366975951829,0.654235885255644,0,0,0,0,1,0,0,0,0,0,0
0,18.7621596050715,0.654192693346957,0,0,0,0,1,0,0,0,0,0,0
0,18.7871291534191,0.654130942893828,0,0,0,0,1,0,0,0,0,0,0
0,18.8127744127236,0.654073887791474,0,0,0,0,1,0,0,0,0,0,0
0,18.8378106552273,0.654032995173396,0,0,0,0,1,0,0,0,0,0,0
0,18.8632673420946,0.653984426827522,0,0,0,0,1,0,0,0,0,0,0
0,18.888282904796,0.653911997038296,0,0,0,0,1,0,0,0,0,0,0
0,18.9119266258788,0.653843886111274,0,0,0,0,1,0,0,0,0,0,0
0,18.9342038100302,0.653793631711331,0,0,0,0,1,0,0,0,0,0,0
0,18.9547010453788,0.653801723177074,0,0,0,0,1,0,0,0,0,0,0
0,18.9711708585539,0.653993395504102,0,0,0,0,1,0,0,0,0,0,0
0,18.9834659646495,0.654180075804444,0,0,0,0,1,0,0,0,0,0,0
0,18.9915765682216,0.654236546925191,0,0,0,0,1,0,0,0,0,0,0
0,18.9957938572741,0.654187300399365,0,0,0,0,1,0,0,0,0,0,0
0,18.9977094138007,0.654126046668019,0,0,0,0,1,0,0,0,0,0,0
0,18.9979031266367,0.654112911689071,0,0,0,0,1,0,0,0,0,0,0
0,18.9979065353925,0.654112452734054,0,0,0,0,1,0,0,0,0,0,0
0,18.9979083772066,0.654111544027305,0,0,0,0,1,0,0,0,0,0,0
0,18.9979072194231,0.65411070849773,0,0,0,0,1,0,0,0,0,0,0
0,18.9990137845847,0.654068428178804,0,0,0,0,1,0,0,0,0,0,0
0,19.0031522662589,0.653957118942887,0,0,0,0,1,0,0,0,0,0,0
0,19.0121850478629,0.65403752264572,0,0,0,0,1,0,0,0,0,0,0
0,19.0287792937515,0.654987347046169,0,0,0,0,1,0,0,0,0,0,0
0,19.0504016760409,0.656933526447879,0,0,0,0,1,0,0,0,0,0,0
0,19.0731625447566,0.659413795339733,0,0,0,0,1,0,0,0,0,0,0
0,19.0969321332588,0.662397560183958,0,0,0,0,1,0,0,0,0,0,0
0,19.1227224394792,0.665535672154395,0,0,0,0,1,0,0,0,0,0,0
0,19.1490020610291,0.668368754294272,0,0,0,0,1,0,0,0,0,0,0
0,19.1749640272117,0.670641077042155,0,0,0,0,1,0,0,0,0,0,0
0,19.2009683316211,0.672429576952769,0,0,0,0,1,0,0,0,0,0,0
0,19.2270991830116,0.673781928832357,0,0,0,0,1,0,0,0,0,0,0
0,19.2535976738632,0.674712457296059,0,0,0,0,1,0,0,0,0,0,0
0,19.2795492154425,0.675379274924919,0,0,0,0,1,0,0,0,0,0,0
0,19.3055435195338,0.675853347376738,0,0,0,0,1,0,0,0,0,0,0
0,19.3316428496424,0.676059816169173,0,0,0,0,1,0,0,0,0,0,0
0,19.3577964919542,0.676051322446607,0,0,0,0,1,0,0,0,0,0,0
0,19.3837795585841,0.675866336708127,0,0,0,0,1,0,0,0,0,0,0
0,19.4097526140301,0.675503336780035,0,0,0,0,1,0,0,0,0,0,0
0,19.4358194167795,0.674984220117727,0,0,0,0,1,0,0,0,0,0,0
0,19.4619324679333,0.674341459816512,0,0,0,0,1,0,0,0,0,0,0
0,19.4878624934283,0.673603210321909,0,0,0,0,1,0,0,0,0,0,0
0,19.5138119117507,0.672746589823787,0,0,0,0,1,0,0,0,0,0,0
0,19.5398526480587,0.671770530159324,0,0,0,0,1,0,0,0,0,0,0
0,19.5659235469795,0.67070734425492,0,0,0,0,1,0,0,0,0,0,0
0,19.5917923857075,0.669636376377845,0,0,0,0,1,0,0,0,0,0,0
0,19.6177009077689,0.668605914066218,0,0,0,0,1,0,0,0,0,0,0
0,19.6437073831075,0.667616403831012,0,0,0,0,1,0,0,0,0,0,0
0,19.6697565709578,0.666667048384796,0,0,0,0,1,0,0,0,0,0,0
0,19.6956274418503,0.665764858420388,0,0,0,0,1,0,0,0,0,0,0
0,19.7215488270823,0.664873830708663,0,0,0,0,1,0,0,0,0,0,0
0,19.7475770815866,0.663974291303239,0,0,0,0,1,0,0,0,0,0,0
0,19.7736553632087,0.663009558402146,0,0,0,0,1,0,0,0,0,0,0
0,19.7995507341828,0.661980922686546,0,0,0,0,1,0,0,0,0,0,0
0,19.8254819848011,0.660874312316382,0,0,0,0,1,0,0,0,0,0,0
0,19.8515063074983,0.659699724085861,0,0,0,0,1,0,0,0,0,0,0
0,19.8775547078795,0.658467549354624,0,0,0,0,1,0,0,0,0,0,0
0,19.9034272939219,0.657214162679898,0,0,0,0,1,0,0,0,0,0,0
0,19.9293441073821,0.655917361796106,0,0,0,0,1,0,0,0,0,0,0
0,19.9553526308628,0.654591610582132,0,0,0,0,1,0,0,0,0,0,0
0,19.9813786377642,0.653244039812434,0,0,0,0,1,0,0,0,0,0,0
0,20.0072369329658,0.651913198167519,0,0,0,0,1,0,0,0,0,0,0
0,20.0331516027188,0.650558552139628,0,0,0,0,1,0,0,0,0,0,0
0,20.0591540870696,0.649182409311235,0,0,0,0,1,0,0,0,0,0,0
0,20.0851724552294,0.647802288341597,0,0,0,0,1,0,0,0,0,0,0
0,20.111028260717,0.646442162194953,0,0,0,0,1,0,0,0,0,0,0
0,20.1369406565132,0.645067469104388,0,0,0,0,1,0,0,0,0,0,0
0,20.1629429058573,0.643679100477803,0,0,0,0,1,0,0,0,0,0,0
0,20.18895978272,0.642287376985814,0,0,0,0,1,0,0,0,0,0,0
0,20.214824443845,0.640921614140449,0,0,0,0,1,0,0,0,0,0,0
0,20.2407322718066,0.639565687576156,0,0,0,0,1,0,0,0,0,0,0
0,20.2667342583632,0.63822191963701,0,0,0,0,1,0,0,0,0,0,0
0,20.2927504994665,0.63690079143116,0,0,0,0,1,0,0,0,0,0,0
0,20.3186011901147,0.635643354577753,0,0,0,0,1,0,0,0,0,0,0
0,20.3445137090397,0.634406285416934,0,0,0,0,1,0,0,0,0,0,0
0,20.3705207379313,0.633188282598158,0,0,0,0,1,0,0,0,0,0,0
0,20.3965455886215,0.632006468887002,0,0,0,0,1,0,0,0,0,0,0
0,20.4224324946087,0.630866101756603,0,0,0,0,1,0,0,0,0,0,0
0,20.448364714562,0.629677492318788,0,0,0,0,1,0,0,0,0,0,0
0,20.4743845642926,0.628439356294879,0,0,0,0,1,0,0,0,0,0,0
0,20.5004217185336,0.62717278977094,0,0,0,0,1,0,0,0,0,0,0
0,20.5262930938941,0.625901312100497,0,0,0,0,1,0,0,0,0,0,0
0,20.5522117253479,0.624614432511639,0,0,0,0,1,0,0,0,0,0,0
0,20.5782225339966,0.623313632582205,0,0,0,0,1,0,0,0,0,0,0
0,20.6042408445325,0.622014840687654,0,0,0,0,1,0,0,0,0,0,0
0,20.6300903949362,0.620763862678584,0,0,0,0,1,0,0,0,0,0,0
0,20.656001654209,0.619551011351561,0,0,0,0,1,0,0,0,0,0,0
0,20.6820092113479,0.618373372310278,0,0,0,0,1,0,0,0,0,0,0
0,20.7080330701195,0.617255892721521,0,0,0,0,1,0,0,0,0,0,0
0,20.7339108336681,0.616212908484491,0,0,0,0,1,0,0,0,0,0,0
0,20.7598514548484,0.615155606552529,0,0,0,0,1,0,0,0,0,0,0
0,20.785892500792,0.61401635166983,0,0,0,0,1,0,0,0,0,0,0
0,20.8119377768909,0.612806626893194,0,0,0,0,1,0,0,0,0,0,0
0,20.8378089579995,0.611556573479897,0,0,0,0,1,0,0,0,0,0,0
0,20.86373408097,0.610246080281098,0,0,0,0,1,0,0,0,0,0,0
0,20.8897559532646,0.608889010225651,0,0,0,0,1,0,0,0,0,0,0
0,20.9157648413298,0.607496933667994,0,0,0,0,1,0,0,0,0,0,0
0,20.9416312499046,0.60610377839034,0,0,0,0,1,0,0,0,0,0,0
0,20.9675501643842,0.6046693923122,0,0,0,0,1,0,0,0,0,0,0
0,20.9935609404945,0.603200934496824,0,0,0,0,1,0,0,0,0,0,0
0,21.0195596039286,0.601715752818335,0,0,0,0,1,0,0,0,0,0,0
0,21.0454088625983,0.600242842822384,0,0,0,0,1,0,0,0,0,0,0
0,21.0713238165914,0.598745168915489,0,0,0,0,1,0,0,0,0,0,0
0,21.0973280957942,0.597224409874653,0,0,0,0,1,0,0,0,0,0,0
0,21.1233216602772,0.595701426577371,0,0,0,0,1,0,0,0,0,0,0
0,21.1491664438379,0.594200577604462,0,0,0,0,1,0,0,0,0,0,0
0,21.175072446263,0.592702100752133,0,0,0,0,1,0,0,0,0,0,0
0,21.201073870153,0.591218572593303,0,0,0,0,1,0,0,0,0,0,0
0,21.2270597402221,0.589768124886075,0,0,0,0,1,0,0,0,0,0,0
0,21.2529063584807,0.588386267537637,0,0,0,0,1,0,0,0,0,0,0
0,21.2788186968201,0.587029937081412,0,0,0,0,1,0,0,0,0,0,0
0,21.3048303866164,0.58569262013375,0,0,0,0,1,0,0,0,0,0,0
0,21.3308368213919,0.58437048375621,0,0,0,0,1,0,0,0,0,0,0
0,21.3566732568659,0.583086759331978,0,0,0,0,1,0,0,0,0,0,0
0,21.3825886321896,0.581822694948134,0,0,0,0,1,0,0,0,0,0,0
0,21.4086024543256,0.580592187653431,0,0,0,0,1,0,0,0,0,0,0
0,21.4346201088218,0.579403240628257,0,0,0,0,1,0,0,0,0,0,0
0,21.4604741882429,0.578255089131588,0,0,0,0,1,0,0,0,0,0,0
0,21.486397204745,0.57712399996603,0,0,0,0,1,0,0,0,0,0,0
0,21.5124187854561,0.576029145389034,0,0,0,0,1,0,0,0,0,0,0
0,21.5384425675927,0.574975868398012,0,0,0,0,1,0,0,0,0,0,0
0,21.5643085818628,0.573964670300281,0,0,0,0,1,0,0,0,0,0,0
0,21.5902138570801,0.572996716451657,0,0,0,0,1,0,0,0,0,0,0
0,21.6162216269354,0.572159562601067,0,0,0,0,1,0,0,0,0,0,0
0,21.642252573504,0.571483829624877,0,0,0,0,1,0,0,0,0,0,0
0,21.668103171718,0.570983275799476,0,0,0,0,1,0,0,0,0,0,0
0,21.6940232211626,0.570608689122006,0,0,0,0,1,0,0,0,0,0,0
0,21.7200564084198,0.570353142124485,0,0,0,0,1,0,0,0,0,0,0
0,21.7461105496137,0.570206282176412,0,0,0,0,1,0,0,0,0,0,0
0,21.7719763579466,0.570182603654052,0,0,0,0,1,0,0,0,0,0,0
0,21.7979171132234,0.570240452428892,0,0,0,0,1,0,0,0,0,0,0
0,21.8239574729648,0.570385382808447,0,0,0,0,1,0,0,0,0,0,0
0,21.8500163073389,0.570617474787699,0,0,0,0,1,0,0,0,0,0,0
0,21.8758824875183,0.570932915863963,0,0,0,0,1,0,0,0,0,0,0
0,21.9018227922832,0.571327325152222,0,0,0,0,1,0,0,0,0,0,0
0,21.9278531181617,0.57181950686493,0,0,0,0,1,0,0,0,0,0,0
0,21.9538906650617,0.57244537036797,0,0,0,0,1,0,0,0,0,0,0
0,21.9792846621681,0.573172518281631,0,0,0,0,1,0,0,0,0,0,0
0,22.0049235331326,0.573979727941529,0,0,0,0,1,0,0,0,0,0,0
0,22.0309101144413,0.574969684742505,0,0,0,0,1,0,0,0,0,0,0
0,22.0569069682321,0.576166132225777,0,0,0,0,1,0,0,0,0,0,0
0,22.0826618825549,0.577569593353885,0,0,0,0,1,0,0,0,0,0,0
0,22.1085456654486,0.579100428608051,0,0,0,0,1,0,0,0,0,0,0
0,22.1345317404944,0.580741747988048,0,0,0,0,1,0,0,0,0,0,0
0,22.1605217269429,0.582491284452891,0,0,0,0,1,0,0,0,0,0,0
0,22.1862895095921,0.584373818579354,0,0,0,0,1,0,0,0,0,0,0
0,22.2121596987583,0.586358411803741,0,0,0,0,1,0,0,0,0,0,0
0,22.2381323809295,0.588380624471644,0,0,0,0,1,0,0,0,0,0,0
0,22.2634880853663,0.590398241171315,0,0,0,0,1,0,0,0,0,0,0
0,22.2885217554423,0.592486593750614,0,0,0,0,1,0,0,0,0,0,0
0,22.3134816197218,0.594621765881281,0,0,0,0,1,0,0,0,0,0,0
0,22.3391907558147,0.596838139627659,0,0,0,0,1,0,0,0,0,0,0
0,22.3651680444139,0.599070403633531,0,0,0,0,1,0,0,0,0,0,0
0,22.3909502292651,0.601269511662638,0,0,0,0,1,0,0,0,0,0,0
0,22.4158294643074,0.603386104669924,0,0,0,0,1,0,0,0,0,0,0
0,22.4416974090822,0.605671172333923,0,0,0,0,1,0,0,0,0,0,0
0,22.4676428956111,0.608027146799173,0,0,0,0,1,0,0,0,0,0,0
0,22.4934052040134,0.61038972641602,0,0,0,0,1,0,0,0,0,0,0
0,22.5192491375507,0.612761292201047,0,0,0,0,1,0,0,0,0,0,0
0,22.5451933021879,0.615136854648562,0,0,0,0,1,0,0,0,0,0,0
0,22.5711561227467,0.617492573416256,0,0,0,0,1,0,0,0,0,0,0
0,22.5969327462265,0.619809386317196,0,0,0,0,1,0,0,0,0,0,0
0,22.6227948196574,0.622095171423398,0,0,0,0,1,0,0,0,0,0,0
0,22.6487634723048,0.624343376485074,0,0,0,0,1,0,0,0,0,0,0
0,22.6747600099822,0.626530892282997,0,0,0,0,1,0,0,0,0,0,0
0,22.7005713219664,0.628638529818715,0,0,0,0,1,0,0,0,0,0,0
